[
  { "id": 0, "name": "컴인워시 고양점", "type": "notouch", "lat": 37.718842, "lng": 126.849320, "time": "24시간", "phone": "031-964-0777", "personal_gear": true, "foam_lance": true },
  { "id": 1, "name": "에이치디현대오일뱅크㈜직영 덕이현대셀프주유소", "type": "self", "lat": 37.693059, "lng": 126.742057, "time": "06:00~23:00", "phone": "031-911-5182", "personal_gear": true, "foam_lance": true },
  { "id": 2, "name": "뉴타운충전소 셀프세차", "type": "self", "lat": 37.680434, "lng": 126.959156, "time": "09:00~21:00", "phone": "02-358-5151", "personal_gear": true, "foam_lance": true },
  { "id": 5, "name": "컴인워시 일산점", "type": "notouch", "lat": 37.698256, "lng": 126.758571, "time": "24시간", "phone": "0507-1335-3733", "personal_gear": true, "foam_lance": true },
  { "id": 9, "name": "다인카워시", "type": "self", "lat": 37.653965, "lng": 126.901354, "time": "24시간", "phone": "0507-1400-3333", "personal_gear": true, "foam_lance": true },
  { "id": 10, "name": "일산가좌셀프주유소 세차장", "type": "self", "lat": 37.701241, "lng": 126.719203, "time": "06:00~22:00", "phone": "031-923-0055", "personal_gear": true, "foam_lance": true },
  { "id": 11, "name": "워시엔카", "type": "self", "lat": 37.606627, "lng": 126.843569, "time": "24시간", "phone": "0507-1320-1234", "personal_gear": true, "foam_lance": true },
  { "id": 12, "name": "워시팩토리 셀프세차장", "type": "self", "lat": 37.682884, "lng": 126.780524, "time": "24시간", "phone": "031-975-1111", "personal_gear": true, "foam_lance": true },
  { "id": 14, "name": "워시존 일산점", "type": "self", "lat": 37.662196, "lng": 126.799489, "time": "24시간", "phone": "031-900-0000", "personal_gear": true, "foam_lance": true },
  { "id": 15, "name": "컴인워시HD고양화정점", "type": "notouch", "lat": 37.630710, "lng": 126.830332, "time": "24시간", "phone": "정보없음", "personal_gear": true, "foam_lance": true },
  { "id": 16, "name": "아이러브워시(어반크러쉬)", "type": "self", "lat": 37.675385, "lng": 126.799000, "time": "24시간", "phone": "031-960-0000", "personal_gear": true, "foam_lance": true },
  { "id": 19, "name": "카워시가든", "type": "self", "lat": 37.643748, "lng": 126.891045, "time": "24시간", "phone": "정보없음", "personal_gear": true, "foam_lance": true },
  { "id": 21, "name": "백석동셀프주유소 세차장", "type": "self", "lat": 37.649733, "lng": 126.793121, "time": "06:00~23:00", "phone": "정보없음", "personal_gear": true, "foam_lance": true },
  { "id": 22, "name": "골드워시 원흥점", "type": "self", "lat": 37.636003, "lng": 126.868375, "time": "24시간", "phone": "031-123-4567", "personal_gear": true, "foam_lance": true },
  { "id": 23, "name": "버니오토워시(고양향동점)", "type": "self", "lat": 37.601860, "lng": 126.889760, "time": "24시간", "phone": "정보없음", "personal_gear": true, "foam_lance": true },
  { "id": 24, "name": "㈜오토스테이 덕양지점", "type": "notouch", "lat": 37.581882, "lng": 126.854626, "time": "08:00~23:00", "phone": "1533-0000", "personal_gear": true, "foam_lance": true },
  { "id": 25, "name": "워시랜드", "type": "self", "lat": 37.634090, "lng": 126.813693, "time": "24시간", "phone": "정보없음", "personal_gear": true, "foam_lance": true },
  { "id": 26, "name": "노바카워시", "type": "self", "lat": 37.622406, "lng": 126.803663, "time": "24시간", "phone": "정보없음", "personal_gear": true, "foam_lance": true },
  { "id": 27, "name": "조이(Joy) 카워시 게러지", "type": "self", "lat": 37.688282, "lng": 126.733491, "time": "09:00~23:00", "phone": "정보없음", "personal_gear": true, "foam_lance": true },
  { "id": 28, "name": "어울림 카워시", "type": "self", "lat": 37.637338, "lng": 126.834644, "time": "24시간", "phone": "정보없음", "personal_gear": true, "foam_lance": true },
  { "id": 29, "name": "백석동 셀프세차장", "type": "self", "lat": 37.631046, "lng": 126.792561, "time": "24시간", "phone": "정보없음", "personal_gear": true, "foam_lance": true },
  { "id": 30, "name": "오토스테이 화정", "type": "notouch", "lat": 37.648131, "lng": 126.840229, "time": "08:00~22:00", "phone": "정보없음", "personal_gear": true, "foam_lance": true },
  { "id": 31, "name": "이지스 제트워시", "type": "self", "lat": 37.646413, "lng": 126.899970, "time": "24시간", "phone": "정보없음", "personal_gear": true, "foam_lance": true },
  { "id": 32, "name": "싹다카워시", "type": "self", "lat": 37.655547, "lng": 126.897283, "time": "24시간", "phone": "정보없음", "personal_gear": true, "foam_lance": true },
  { "id": 34, "name": "빅워시", "type": "self", "lat": 37.628187, "lng": 126.824265, "time": "24시간", "phone": "정보없음", "personal_gear": true, "foam_lance": true },
  { "id": 35, "name": "버블셀프세차", "type": "self", "lat": 37.691892, "lng": 126.774749, "time": "24시간", "phone": "정보없음", "personal_gear": true, "foam_lance": true },
  { "id": 36, "name": "컴인워시HD일산장항점", "type": "notouch", "lat": 37.644160, "lng": 126.762090, "time": "24시간", "phone": "정보없음", "personal_gear": true, "foam_lance": true },
  { "id": 37, "name": "삼정셀프주유소 세차장", "type": "self", "lat": 37.693807, "lng": 126.772917, "time": "06:00~22:00", "phone": "정보없음", "personal_gear": true, "foam_lance": true },
  { "id": 38, "name": "탄현셀프주유소 세차장", "type": "self", "lat": 37.691608, "lng": 126.759126, "time": "06:00~22:00", "phone": "정보없음", "personal_gear": true, "foam_lance": true },
  { "id": 39, "name": "그린셀프세차장", "type": "self", "lat": 37.644620, "lng": 126.910748, "time": "24시간", "phone": "정보없음", "personal_gear": true, "foam_lance": true },
  { "id": 41, "name": "대화미래로셀프세차장", "type": "self", "lat": 37.668100, "lng": 126.729348, "time": "24시간", "phone": "정보없음", "personal_gear": true, "foam_lance": true },
  { "id": 42, "name": "덕이셀프주유소", "type": "self", "lat": 37.691615, "lng": 126.749477, "time": "06:00~23:00", "phone": "정보없음", "personal_gear": true, "foam_lance": true },
  { "id": 43, "name": "늘푸른셀프세차장", "type": "self", "lat": 37.681113, "lng": 126.893643, "time": "24시간", "phone": "정보없음", "personal_gear": true, "foam_lance": true },
  { "id": 44, "name": "럭키워시", "type": "self", "lat": 37.688785, "lng": 126.757468, "time": "24시간", "phone": "정보없음", "personal_gear": true, "foam_lance": true },
  { "id": 45, "name": "레인보우 셀프세차장", "type": "self", "lat": 37.661894, "lng": 126.892050, "time": "24시간", "phone": "정보없음", "personal_gear": true, "foam_lance": true },
  { "id": 46, "name": "더블유카워시 삼송점", "type": "self", "lat": 37.661795, "lng": 126.891710, "time": "24시간", "phone": "정보없음", "personal_gear": true, "foam_lance": true },
  { "id": 47, "name": "몬스터워시", "type": "self", "lat": 37.646840, "lng": 126.903448, "time": "24시간", "phone": "0507-1330-0000", "personal_gear": true, "foam_lance": true },
  { "id": 48, "name": "OK카워시", "type": "self", "lat": 37.617662, "lng": 126.823237, "time": "24시간", "phone": "정보없음", "personal_gear": true, "foam_lance": true },
  { "id": 49, "name": "몬스터개러지", "type": "self", "lat": 37.669189, "lng": 126.790516, "time": "10:00~20:00", "phone": "정보없음", "personal_gear": true, "foam_lance": true },
  { "id": 50, "name": "㈜내유셀프주유소", "type": "self", "lat": 37.723190, "lng": 126.846305, "time": "06:00~23:00", "phone": "정보없음", "personal_gear": true, "foam_lance": true },
  { "id": 51, "name": "㈜오토스테이 일산지점", "type": "notouch", "lat": 37.672130, "lng": 126.787583, "time": "08:00~22:00", "phone": "정보없음", "personal_gear": true, "foam_lance": true },
  { "id": 52, "name": "워시멜로 창릉", "type": "self", "lat": 37.604499, "lng": 126.863448, "time": "24시간", "phone": "정보없음", "personal_gear": true, "foam_lance": true },
  { "id": 53, "name": "프로카워시", "type": "self", "lat": 37.683581, "lng": 126.746353, "time": "24시간", "phone": "정보없음", "personal_gear": true, "foam_lance": true },
  { "id": 54, "name": "대명셀프세차장", "type": "self", "lat": 37.674790, "lng": 126.809351, "time": "24시간", "phone": "정보없음", "personal_gear": true, "foam_lance": true },
  { "id": 55, "name": "워시존 화정점", "type": "self", "lat": 37.635412, "lng": 126.832991, "time": "24시간", "phone": "정보없음", "personal_gear": true, "foam_lance": true },
  { "id": 56, "name": "컴인워시 덕이점", "type": "notouch", "lat": 37.690118, "lng": 126.745210, "time": "24시간", "phone": "정보없음", "personal_gear": true, "foam_lance": true },
  { "id": 57, "name": "오토스테이 고양 뉴캐슬점", "type": "notouch", "lat": 37.6631, "lng": 126.8643, "time": "08:00~23:00", "phone": "070-7777-9812", "personal_gear": true, "foam_lance": true },
  { "id": 58, "name": "엠제이샤인", "type": "notouch", "lat": 37.665916, "lng": 126.727553, "time": "09:00~19:00", "phone": "정보없음", "personal_gear": false, "foam_lance": false },
  { "id": 59, "name": "카리스마 디팩토리 덕이점", "type": "self", "lat": 37.696347, "lng": 126.745123, "time": "10:00~22:00", "phone": "정보없음", "personal_gear": true, "foam_lance": true },
  { "id": 60, "name": "JK DETAILING", "type": "self", "lat": 37.669812, "lng": 126.804912, "time": "예약제", "phone": "정보없음", "personal_gear": true, "foam_lance": true }
]
